,City,Country,Date,Lat,Lng,Max Temp,Humidity,Cloudiness,Wind Speed,Current Description
0,Tautira,PF,2022-07-19 02:30:03,-17.7333,-149.15,76.3,71,16,3.06,light rain
1,Finnsnes,NO,2022-07-19 02:30:04,69.2296,17.9811,51.76,84,99,1.16,overcast clouds
2,Hualmay,PE,2022-07-19 02:30:04,-11.0964,-77.6139,61.45,85,100,10.18,overcast clouds
3,Mar Del Plata,AR,2022-07-19 02:30:05,-38.0023,-57.5575,42.87,85,0,4.0,clear sky
4,Hobart,AU,2022-07-19 02:26:14,-42.8794,147.3294,49.26,74,75,8.05,broken clouds
5,Yellowknife,CA,2022-07-19 02:30:05,62.456,-114.3525,70.32,60,75,4.61,broken clouds
6,Kapaa,US,2022-07-19 02:30:06,22.0752,-159.319,87.78,73,40,16.11,scattered clouds
7,Bluff,NZ,2022-07-19 02:30:06,-46.6,168.3333,45.81,69,96,15.68,overcast clouds
8,Hofn,IS,2022-07-19 02:27:27,64.2539,-15.2082,50.54,84,100,9.82,overcast clouds
9,Ahipara,NZ,2022-07-19 02:30:07,-35.1667,173.1667,63.05,81,89,8.55,light rain
10,Ketchikan,US,2022-07-19 02:30:07,55.3422,-131.6461,57.67,82,100,5.75,overcast clouds
11,Lifford,IE,2022-07-19 02:30:08,54.8319,-7.4836,63.7,95,99,2.26,overcast clouds
12,Punta Arenas,CL,2022-07-19 02:30:08,-53.15,-70.9167,41.11,75,0,32.21,clear sky
13,Ushuaia,AR,2022-07-19 02:30:08,-54.8,-68.3,33.46,93,75,9.22,broken clouds
14,East London,ZA,2022-07-19 02:30:09,-33.0153,27.9116,67.86,37,3,11.07,clear sky
15,Fougamou,GA,2022-07-19 02:30:09,-1.2154,10.5838,70.23,89,100,1.48,overcast clouds
16,Upernavik,GL,2022-07-19 02:28:39,72.7868,-56.1549,43.34,80,100,7.02,overcast clouds
17,Khandyga,RU,2022-07-19 02:30:10,62.6667,135.6,80.17,43,94,10.51,overcast clouds
18,Muros,ES,2022-07-19 02:29:57,42.7762,-9.0603,66.09,87,10,11.9,clear sky
19,Okhotsk,RU,2022-07-19 02:30:10,59.3833,143.3,62.78,79,85,8.41,overcast clouds
20,Salta,AR,2022-07-19 02:30:11,-24.7859,-65.4117,48.79,65,0,5.75,clear sky
21,Yulara,AU,2022-07-19 02:30:12,-25.2406,130.9889,69.58,18,0,7.7,clear sky
22,Ponta Do Sol,PT,2022-07-19 02:30:11,32.6667,-17.1,69.71,80,0,6.6,clear sky
23,Touros,BR,2022-07-19 02:30:12,-5.1989,-35.4608,74.93,89,89,12.03,light rain
24,Kushmurun,KZ,2022-07-19 02:30:13,52.4503,64.6311,72.73,62,0,3.4,clear sky
25,Khatanga,RU,2022-07-19 02:30:13,71.9667,102.5,49.82,69,100,17.18,overcast clouds
26,Rheinau,DE,2022-07-19 02:30:13,48.8667,8.2,68.99,94,6,2.3,clear sky
27,Vila Velha,BR,2022-07-19 02:30:14,-20.3297,-40.2925,68.95,91,40,1.14,scattered clouds
28,Te Anau,NZ,2022-07-19 02:30:14,-45.4167,167.7167,41.49,98,100,4.74,overcast clouds
29,Palmer,US,2022-07-19 02:30:15,42.1584,-72.3287,75.81,84,75,14.97,mist
30,Kamenka,RU,2022-07-19 02:30:15,51.3223,42.7678,56.28,87,13,11.23,few clouds
31,Quatre Cocos,MU,2022-07-19 02:30:16,-20.2078,57.7625,68.11,75,78,22.68,light rain
32,Kampong Chhnang,KH,2022-07-19 02:30:16,12.1667,104.55,87.55,65,14,2.95,few clouds
33,Barrow,US,2022-07-19 02:30:17,71.2906,-156.7887,42.82,81,100,14.97,overcast clouds
34,Mayo,US,2022-07-19 02:30:17,38.8876,-76.5119,78.94,90,0,5.75,clear sky
35,Aranos,NA,2022-07-19 02:30:17,-24.1333,19.1167,48.6,47,0,11.65,clear sky
36,Albany,US,2022-07-19 02:30:18,42.6001,-73.9662,74.17,92,100,8.9,overcast clouds
37,Diffa,NE,2022-07-19 02:30:19,13.3154,12.6113,78.62,71,26,10.8,scattered clouds
38,Mataura,NZ,2022-07-19 02:30:19,-46.1927,168.8643,45.48,89,100,4.16,overcast clouds
39,Busselton,AU,2022-07-19 02:27:29,-33.65,115.3333,56.59,73,0,9.73,clear sky
40,Rikitea,PF,2022-07-19 02:30:20,-23.1203,-134.9692,74.41,77,3,11.92,clear sky
41,Saldanha,ZA,2022-07-19 02:30:20,-33.0117,17.9442,50.05,74,0,13.4,clear sky
42,Tiksi,RU,2022-07-19 02:30:20,71.6872,128.8694,34.02,86,100,21.9,overcast clouds
43,Avarua,CK,2022-07-19 02:30:21,-21.2078,-159.775,77.05,65,40,9.22,scattered clouds
44,Puerto Ayora,EC,2022-07-19 02:27:49,-0.7393,-90.3518,68.56,94,69,3.0,broken clouds
45,Kavieng,PG,2022-07-19 02:30:21,-2.5744,150.7967,83.23,73,100,11.05,light rain
46,Severo-Kurilsk,RU,2022-07-19 02:27:46,50.6789,156.125,57.38,86,81,9.46,broken clouds
47,Atuona,PF,2022-07-19 02:31:22,-9.8,-139.0333,77.05,74,68,18.81,light rain
48,Kurumkan,RU,2022-07-19 02:31:22,54.3,110.3,81.34,33,7,3.98,clear sky
49,Anloga,GH,2022-07-19 02:31:23,5.7947,0.8973,75.6,83,60,11.86,broken clouds
50,Hithadhoo,MV,2022-07-19 02:31:23,-0.6,73.0833,82.51,75,99,9.31,overcast clouds
51,Usuki,JP,2022-07-19 02:31:24,33.1081,131.7878,74.77,94,100,1.14,moderate rain
52,Butaritari,KI,2022-07-19 02:31:24,3.0707,172.7902,82.4,73,61,17.94,broken clouds
53,Lorengau,PG,2022-07-19 02:26:26,-2.0226,147.2712,82.44,73,100,5.03,overcast clouds
54,Shimoda,JP,2022-07-19 02:27:43,34.6667,138.95,80.96,91,100,16.71,light rain
55,Laukaa,RU,2022-07-19 02:31:25,58.7372,29.8453,50.47,75,65,3.31,broken clouds
56,Paamiut,GL,2022-07-19 02:31:26,61.994,-49.6678,44.42,79,100,6.42,overcast clouds
57,Mahibadhoo,MV,2022-07-19 02:31:26,3.7833,72.9667,82.94,76,100,19.86,overcast clouds
58,Sokoni,TZ,2022-07-19 02:31:26,-6.4333,39.55,75.27,75,8,13.04,clear sky
59,Aswan,EG,2022-07-19 02:31:27,24.0934,32.907,85.3,17,0,9.22,clear sky
60,Mahebourg,MU,2022-07-19 02:31:27,-20.4081,57.7,68.29,73,40,17.27,scattered clouds
61,Meulaboh,ID,2022-07-19 02:31:28,4.1363,96.1285,81.97,69,85,2.24,overcast clouds
62,Airai,TL,2022-07-19 02:31:28,-8.9266,125.4092,69.76,39,61,3.06,broken clouds
63,Lompoc,US,2022-07-19 02:27:21,34.6391,-120.4579,84.78,68,0,11.5,clear sky
64,Castro,BR,2022-07-19 02:27:29,-24.7911,-50.0119,57.11,99,100,3.0,overcast clouds
65,Damavand,IR,2022-07-19 02:31:29,35.7178,52.065,74.71,20,0,3.83,clear sky
66,Arraial Do Cabo,BR,2022-07-19 02:26:30,-22.9661,-42.0278,69.91,90,100,14.85,overcast clouds
67,Hilo,US,2022-07-19 02:31:29,19.7297,-155.09,83.28,89,75,5.75,light rain
68,Adana,TR,2022-07-19 02:31:30,36.985,35.2881,75.22,94,0,2.3,clear sky
69,Tevaitoa,PF,2022-07-19 02:31:30,-16.7833,-151.5,76.71,69,4,5.64,clear sky
70,Lujan,AR,2022-07-19 02:27:53,-34.5703,-59.105,49.95,65,99,4.88,overcast clouds
71,Bredasdorp,ZA,2022-07-19 02:31:31,-34.5322,20.0403,53.73,86,98,2.75,overcast clouds
72,Novaya Zaimka,RU,2022-07-19 02:31:31,56.4857,66.9241,66.04,70,0,2.8,clear sky
73,Thompson,CA,2022-07-19 02:30:31,55.7435,-97.8558,73.56,56,40,4.61,scattered clouds
74,Ciudad Bolivar,VE,2022-07-19 02:31:31,8.1222,-63.5497,77.47,81,77,10.0,broken clouds
75,Grand Gaube,MU,2022-07-19 02:31:32,-20.0064,57.6608,68.4,66,49,11.99,scattered clouds
76,Isangel,VU,2022-07-19 02:31:32,-19.55,169.2667,80.71,78,75,2.3,broken clouds
77,Kismayo,SO,2022-07-19 02:31:33,-0.3582,42.5454,75.27,77,91,17.49,overcast clouds
78,Nikolskoye,RU,2022-07-19 02:31:33,59.7035,30.7861,55.87,82,84,3.78,broken clouds
79,Griffith,US,2022-07-19 02:31:34,41.5284,-87.4237,80.11,72,40,6.91,scattered clouds
80,Bathsheba,BB,2022-07-19 02:31:34,13.2167,-59.5167,81.21,86,20,20.71,few clouds
81,Lata,PT,2022-07-19 02:31:34,40.1629,-8.3327,59.94,95,51,0.67,broken clouds
82,Kangaba,ML,2022-07-19 02:31:35,11.9333,-8.4167,72.88,93,86,7.18,light rain
83,Saint-Philippe,RE,2022-07-19 02:27:31,-21.3585,55.7679,67.59,71,68,19.64,light rain
84,Sao Sebastiao,BR,2022-07-19 02:31:36,-23.76,-45.4097,68.36,95,100,0.18,light rain
85,Brae,GB,2022-07-19 02:31:36,60.3964,-1.353,56.14,94,100,10.71,overcast clouds
86,Nanortalik,GL,2022-07-19 02:31:37,60.1432,-45.2371,46.62,80,82,9.8,broken clouds
87,Mitsamiouli,KM,2022-07-19 02:31:37,-11.3847,43.2844,75.88,69,8,12.21,clear sky
88,Sibu,MY,2022-07-19 02:31:37,2.3,111.8167,84.51,74,40,3.44,scattered clouds
89,Vaini,TO,2022-07-19 02:31:38,-21.2,-175.2,78.96,83,40,13.8,scattered clouds
90,Hermanus,ZA,2022-07-19 02:32:38,-34.4187,19.2345,52.81,80,99,6.11,overcast clouds
91,Channel-Port Aux Basques,CA,2022-07-19 02:32:39,47.5702,-59.1367,63.3,94,100,2.06,overcast clouds
92,Belmonte,BR,2022-07-19 02:32:39,-15.8631,-38.8828,72.18,83,67,7.63,broken clouds
93,Kaitangata,NZ,2022-07-19 02:32:40,-46.2817,169.8464,45.16,86,100,8.03,light rain
94,Novopavlovka,RU,2022-07-19 02:32:40,51.2172,109.2091,87.4,26,90,6.31,overcast clouds
95,Ossora,RU,2022-07-19 02:32:41,59.2353,163.0719,64.13,78,98,10.6,overcast clouds
96,Cidreira,BR,2022-07-19 02:32:41,-30.1811,-50.2056,54.27,92,5,5.01,clear sky
97,Namibe,AO,2022-07-19 02:32:41,-15.1961,12.1522,64.27,84,0,3.98,clear sky
98,Pevek,RU,2022-07-19 02:31:48,69.7008,170.3133,33.91,92,97,5.75,overcast clouds
99,Langsa,ID,2022-07-19 02:32:42,4.4683,97.9683,79.0,92,100,2.62,moderate rain
100,Georgetown,MY,2022-07-19 02:30:10,5.4112,100.3354,80.89,89,20,4.61,few clouds
101,Pacific Grove,US,2022-07-19 02:32:43,36.6177,-121.9166,67.68,81,0,8.05,clear sky
102,Victoria,HK,2022-07-19 02:31:46,22.2855,114.1577,89.96,79,100,11.01,overcast clouds
103,Lasa,IT,2022-07-19 02:32:43,46.6166,10.7002,63.36,85,18,0.87,few clouds
104,Ichinohe,JP,2022-07-19 02:32:43,40.2069,141.3017,72.57,91,100,1.54,overcast clouds
105,San Patricio,US,2022-07-19 02:32:44,28.017,-97.5169,85.84,76,11,12.28,few clouds
106,Tigil,RU,2022-07-19 02:30:18,57.8,158.6667,73.83,61,18,9.28,few clouds
107,Aklavik,CA,2022-07-19 02:32:45,68.2191,-135.0107,57.72,94,100,1.34,moderate rain
108,Sao Felix Do Xingu,BR,2022-07-19 02:32:45,-6.6447,-51.995,71.51,58,22,1.25,few clouds
109,Novikovo,RU,2022-07-19 02:32:45,51.1537,37.8879,54.3,88,0,5.93,clear sky
110,Sobolevo,RU,2022-07-19 02:32:46,54.4299,31.8996,50.97,92,86,4.38,overcast clouds
111,Aksarka,RU,2022-07-19 02:32:46,66.5606,67.7975,66.63,54,74,8.14,broken clouds
112,Marsabit,KE,2022-07-19 02:32:45,2.3284,37.9899,58.35,78,98,20.36,overcast clouds
113,Paso De Los Toros,UY,2022-07-19 02:32:47,-32.8167,-56.5167,45.72,83,38,1.72,scattered clouds
114,Nelson Bay,AU,2022-07-19 02:30:21,-32.7167,152.15,57.99,98,99,8.01,light rain
115,Angoram,PG,2022-07-19 02:32:47,-4.0625,144.0661,82.87,83,70,2.82,broken clouds
116,Iqaluit,CA,2022-07-19 02:30:13,63.7506,-68.5145,38.93,93,75,14.97,broken clouds
117,Sakakah,SA,2022-07-19 02:32:48,29.9697,40.2064,85.57,19,0,8.63,clear sky
118,Verkhnyaya Inta,RU,2022-07-19 02:32:48,65.9811,60.3094,70.81,49,4,6.17,clear sky
119,Conchal,BR,2022-07-19 02:32:49,-22.3303,-47.1725,68.16,87,85,6.69,overcast clouds
120,Kurilsk,RU,2022-07-19 02:32:49,45.2333,147.8833,61.39,81,47,7.94,scattered clouds
121,Shangrao,CN,2022-07-19 02:32:49,28.4532,117.9686,87.85,72,100,4.03,overcast clouds
122,Bethel,US,2022-07-19 02:32:50,41.3712,-73.414,75.36,92,100,4.61,mist
123,Cape Town,ZA,2022-07-19 02:32:50,-33.9258,18.4232,55.9,79,20,11.5,few clouds
124,Esperance,AU,2022-07-19 02:31:13,-33.8667,121.9,59.02,74,5,6.73,clear sky
125,Chute-Aux-Outardes,CA,2022-07-19 02:32:51,49.1168,-68.399,58.98,88,0,5.75,clear sky
126,Cabo San Lucas,MX,2022-07-19 02:29:41,22.8909,-109.9124,87.62,63,20,3.44,few clouds
127,Carnarvon,AU,2022-07-19 02:32:52,-24.8667,113.6333,69.57,43,0,11.16,clear sky
128,Banswara,IN,2022-07-19 02:32:52,23.55,74.45,81.27,84,63,12.95,broken clouds
129,Zavetnoye,RU,2022-07-19 02:32:53,47.1194,43.8903,68.83,44,63,10.54,broken clouds
130,Barcelona,ES,2022-07-19 02:28:43,41.3888,2.159,77.83,89,20,2.3,few clouds
131,Tuatapere,NZ,2022-07-19 02:32:45,-46.1333,167.6833,45.86,85,100,7.67,overcast clouds
132,Torbay,CA,2022-07-19 02:32:53,47.6666,-52.7314,64.38,86,100,19.57,overcast clouds
133,Coquimbo,CL,2022-07-19 02:29:18,-29.9533,-71.3436,53.33,87,0,2.3,clear sky
134,Tanete,ID,2022-07-19 02:32:54,-3.9443,119.7848,84.99,66,96,9.26,overcast clouds
135,Cayenne,GF,2022-07-19 02:32:13,4.9333,-52.3333,76.08,1,99,2.3,overcast clouds
136,Cherskiy,RU,2022-07-19 02:33:14,68.75,161.3,53.33,51,68,23.13,broken clouds
137,Hawalli,KW,2022-07-19 02:33:55,29.2833,47.9972,98.69,33,0,12.66,clear sky
138,Klaksvik,FO,2022-07-19 02:33:55,62.2266,-6.589,52.72,92,93,16.2,overcast clouds
139,Chuy,UY,2022-07-19 02:33:55,-33.6971,-53.4616,45.48,90,86,2.95,overcast clouds
140,Jamestown,US,2022-07-19 02:33:56,42.097,-79.2353,71.19,91,20,10.36,few clouds
141,Ambunti,PG,2022-07-19 02:33:56,-4.2365,142.8448,83.89,78,91,2.71,overcast clouds
142,Provideniya,RU,2022-07-19 02:33:57,64.3833,-173.3,48.36,66,75,13.42,broken clouds
143,Norman Wells,CA,2022-07-19 02:32:22,65.282,-126.8329,66.24,72,75,13.8,broken clouds
144,Fortuna,US,2022-07-19 02:30:09,40.5982,-124.1573,64.85,74,5,1.99,clear sky
145,Bambous Virieux,MU,2022-07-19 02:33:57,-20.3428,57.7575,68.25,73,40,17.27,light rain
146,Amasia,TR,2022-07-19 02:33:58,40.6533,35.8331,64.13,84,100,5.37,overcast clouds
147,Antofagasta,CL,2022-07-19 02:31:59,-23.65,-70.4,54.68,76,21,4.23,few clouds
148,Port Alfred,ZA,2022-07-19 02:33:58,-33.5906,26.891,62.46,59,23,4.83,few clouds
149,North Battleford,CA,2022-07-19 02:33:59,52.7834,-108.2847,68.09,73,100,11.5,overcast clouds
150,Havre-Saint-Pierre,CA,2022-07-19 02:33:59,50.2334,-63.5986,55.76,94,0,4.61,clear sky
151,Kodiak,US,2022-07-19 02:34:00,57.79,-152.4072,60.31,63,0,5.75,clear sky
152,Yumen,CN,2022-07-19 02:34:00,40.2833,97.2,80.46,22,10,8.9,clear sky
153,Axim,GH,2022-07-19 02:34:01,4.8699,-2.2405,74.77,78,98,8.84,overcast clouds
154,Sydney,AU,2022-07-19 02:33:29,-33.8679,151.2073,58.33,72,75,21.85,light rain
155,Mezen,RU,2022-07-19 02:34:01,65.8522,44.24,60.6,78,100,6.15,overcast clouds
156,Ilulissat,GL,2022-07-19 02:34:01,69.2167,-51.1,46.42,71,75,2.3,broken clouds
157,Kudahuvadhoo,MV,2022-07-19 02:34:02,2.6708,72.8944,82.17,75,100,16.53,overcast clouds
158,Volax,GR,2022-07-19 02:34:02,41.3167,24.0,53.56,69,1,4.88,clear sky
159,Mehamn,NO,2022-07-19 02:34:03,71.0357,27.8492,60.75,72,20,3.44,few clouds
160,Dickinson,US,2022-07-19 02:34:03,29.4608,-95.0513,87.75,80,40,13.8,scattered clouds
161,Willowmore,ZA,2022-07-19 02:34:03,-33.2926,23.4895,49.48,60,43,2.04,scattered clouds
162,Sitka,US,2022-07-19 02:34:04,57.0531,-135.33,55.29,88,100,3.44,overcast clouds
163,New Norfolk,AU,2022-07-19 02:32:48,-42.7826,147.0587,48.92,59,26,1.07,scattered clouds
164,Nogales,MX,2022-07-19 02:34:04,31.3086,-110.9422,81.97,54,75,8.05,broken clouds
165,Ubinskoye,RU,2022-07-19 02:34:05,55.3068,79.6802,63.63,64,66,8.66,broken clouds
166,Xiaoyi,CN,2022-07-19 02:34:05,34.6178,109.703,67.69,95,100,5.7,overcast clouds
167,Tikamgarh,IN,2022-07-19 02:34:06,24.745,78.8333,87.87,62,34,7.43,scattered clouds
168,Berlevag,NO,2022-07-19 02:34:06,70.8578,29.0864,60.8,81,80,5.91,broken clouds
169,Ribeira Grande,PT,2022-07-19 02:34:06,38.5167,-28.7,71.94,91,20,0.63,few clouds
170,Urengoy,RU,2022-07-19 02:31:22,65.9667,78.3667,64.54,54,99,13.06,overcast clouds
171,Talcahuano,CL,2022-07-19 02:34:07,-36.7167,-73.1167,40.68,93,0,8.05,clear sky
172,Jalu,LY,2022-07-19 02:34:07,29.0331,21.5482,76.98,48,0,9.08,clear sky
173,Dingle,PH,2022-07-19 02:34:08,10.9995,122.6711,80.08,85,100,5.82,overcast clouds
174,Port Elizabeth,ZA,2022-07-19 02:34:08,-33.918,25.5701,58.32,96,75,3.44,broken clouds
175,Luderitz,NA,2022-07-19 02:34:09,-26.6481,15.1594,55.63,87,0,10.94,clear sky
176,Iracoubo,GF,2022-07-19 02:34:09,5.4802,-53.2011,78.78,84,99,8.1,overcast clouds
177,Moron,AR,2022-07-19 02:34:10,-34.6534,-58.6198,51.55,57,78,3.89,broken clouds
178,Mangaratiba,BR,2022-07-19 02:34:10,-22.9597,-44.0406,67.06,90,99,3.36,overcast clouds
179,Dikson,RU,2022-07-19 02:33:07,73.5069,80.5464,45.59,79,39,15.5,scattered clouds
180,Ciro Marina,IT,2022-07-19 02:34:11,39.3732,17.126,76.17,63,19,9.28,few clouds
181,Goundam,ML,2022-07-19 02:34:11,16.4145,-3.6708,91.63,41,33,7.38,scattered clouds
182,Matagami,CA,2022-07-19 02:35:12,49.7502,-77.6328,69.91,68,100,23.02,heavy intensity rain
183,Tuktoyaktuk,CA,2022-07-19 02:35:12,69.4541,-133.0374,66.2,77,100,5.75,overcast clouds
184,Portland,US,2022-07-19 02:33:41,45.5234,-122.6762,79.39,50,0,11.5,clear sky
185,Necochea,AR,2022-07-19 02:35:12,-38.5473,-58.7368,40.6,79,100,6.87,overcast clouds
186,Lagoa,PT,2022-07-19 02:35:13,39.05,-27.9833,68.85,88,100,11.03,overcast clouds
187,Mirabad,AF,2022-07-19 02:35:13,30.4362,61.8383,93.52,11,0,14.7,clear sky
188,Jumla,NP,2022-07-19 02:35:14,29.2747,82.1838,69.85,78,80,3.13,broken clouds
189,Hit,IQ,2022-07-19 02:35:14,33.6416,42.8251,91.22,17,0,7.94,clear sky
190,Mkushi,ZM,2022-07-19 02:35:14,-13.6202,29.3939,52.74,81,1,6.85,clear sky
191,Waipawa,NZ,2022-07-19 02:35:15,-41.4122,175.5153,58.23,65,90,10.42,overcast clouds
192,Juybar,IR,2022-07-19 02:35:15,36.6412,52.9124,77.09,65,0,4.88,clear sky
193,Tazovskiy,RU,2022-07-19 02:32:13,67.4667,78.7,59.23,58,19,13.94,few clouds
194,Arica,CL,2022-07-19 02:35:16,-18.475,-70.3042,59.23,77,100,6.91,overcast clouds
195,Ancud,CL,2022-07-19 02:35:16,-41.8697,-73.8203,41.23,83,26,10.36,scattered clouds
196,Portsmouth,GB,2022-07-19 02:31:14,50.799,-1.0913,74.91,80,4,7.0,clear sky
197,Dudinka,RU,2022-07-19 02:35:17,69.4058,86.1778,63.63,44,51,18.28,broken clouds
198,Saskylakh,RU,2022-07-19 02:31:06,71.9167,114.0833,42.69,73,100,16.17,overcast clouds
199,Tonantins,BR,2022-07-19 02:35:17,-2.8731,-67.8022,73.54,98,59,1.81,broken clouds
200,Mangrol,IN,2022-07-19 02:30:24,21.1167,70.1167,80.89,85,100,13.18,overcast clouds
201,Vanimo,PG,2022-07-19 02:35:18,-2.6741,141.3028,80.47,83,89,2.8,overcast clouds
202,Vestmannaeyjar,IS,2022-07-19 02:35:19,63.4427,-20.2734,50.45,91,100,7.47,overcast clouds
203,Chokurdakh,RU,2022-07-19 02:35:19,70.6333,147.9167,48.51,40,26,14.23,scattered clouds
204,Kaeo,NZ,2022-07-19 02:34:41,-35.1,173.7833,62.33,95,100,9.15,overcast clouds
205,Udachnyy,RU,2022-07-19 02:33:58,66.4167,112.4,53.46,93,73,9.84,broken clouds
206,Kirillov,RU,2022-07-19 02:35:20,59.863,38.3813,54.34,97,100,7.96,light rain
207,Riobamba,EC,2022-07-19 02:35:20,-1.6667,-78.6333,51.3,92,100,5.57,overcast clouds
208,Teya,RU,2022-07-19 02:35:21,60.3778,92.6267,55.98,95,100,2.19,overcast clouds
209,Coahuayana,MX,2022-07-19 02:35:21,18.7333,-103.6833,79.07,83,100,1.41,overcast clouds
210,Northam,GB,2022-07-19 02:35:21,51.0333,-4.2167,69.98,48,34,13.51,scattered clouds
211,Asau,RO,2022-07-19 02:35:22,46.4333,26.4,59.95,75,3,4.21,clear sky
212,Grindavik,IS,2022-07-19 02:35:22,63.8424,-22.4338,51.75,100,100,6.91,overcast clouds
213,Cockburn Town,TC,2022-07-19 02:35:23,21.4612,-71.1419,82.36,69,40,10.36,scattered clouds
214,San Marcos,US,2022-07-19 02:31:12,33.1434,-117.1661,84.54,69,0,8.05,clear sky
215,Ostrovnoy,RU,2022-07-19 02:35:23,68.0531,39.5131,57.6,77,63,4.97,broken clouds
216,Saint-Francois,FR,2022-07-19 02:35:24,46.4154,3.9054,60.67,88,0,1.14,clear sky
217,Los Llanos De Aridane,ES,2022-07-19 02:35:24,28.6585,-17.9182,69.55,84,100,12.66,overcast clouds
218,Turbat,PK,2022-07-19 02:35:24,26.0023,63.044,86.0,72,84,3.8,broken clouds
219,Atherton,GB,2022-07-19 02:35:25,53.5237,-2.4935,77.77,55,90,1.99,overcast clouds
220,Liverpool,GB,2022-07-19 02:30:26,53.4106,-2.9779,78.66,56,0,5.75,clear sky
221,Payakumbuh,ID,2022-07-19 02:35:25,-0.2202,100.6308,85.24,50,18,1.28,few clouds
222,Bilma,NE,2022-07-19 02:35:26,18.6853,12.9164,86.0,42,21,6.98,few clouds
223,Codrington,AU,2022-07-19 02:35:26,-38.2667,141.9667,51.94,57,10,9.19,clear sky
224,Bowen,AU,2022-07-19 02:35:27,-20.0167,148.2333,71.89,62,3,12.53,clear sky
225,Progreso,MX,2022-07-19 02:35:27,21.2833,-89.6667,82.51,81,2,13.18,clear sky
226,Den Helder,NL,2022-07-19 02:31:27,52.9599,4.7593,69.98,72,74,7.0,broken clouds
227,Plettenberg Bay,ZA,2022-07-19 02:35:28,-34.0527,23.3716,60.19,85,97,2.59,overcast clouds
228,Sioux Lookout,CA,2022-07-19 02:35:28,50.1001,-91.917,69.87,83,20,0.0,smoke
229,Beringovskiy,RU,2022-07-19 02:36:29,63.05,179.3167,56.1,50,39,20.09,scattered clouds
230,Geraldton,AU,2022-07-19 02:36:29,-28.7667,114.6,61.21,77,0,12.66,clear sky
231,Bhachau,IN,2022-07-19 02:36:29,23.2833,70.35,83.12,77,92,10.33,overcast clouds
232,Mogadishu,SO,2022-07-19 02:35:31,2.0371,45.3438,74.93,82,67,19.33,light rain
233,Omboue,GA,2022-07-19 02:36:30,-1.5746,9.2618,71.31,86,100,6.98,overcast clouds
234,Lebu,CL,2022-07-19 02:36:30,-37.6167,-73.65,43.66,80,76,2.62,broken clouds
235,Vagay,RU,2022-07-19 02:36:30,57.9375,69.0217,68.74,57,3,4.5,clear sky
236,Palmerston,AU,2022-07-19 02:36:31,-12.486,130.9833,85.93,45,0,4.61,clear sky
237,Kirakira,SB,2022-07-19 02:36:31,-10.4544,161.9205,83.66,70,24,6.73,few clouds
238,Leningradskiy,RU,2022-07-19 02:36:31,69.3833,178.4167,34.48,99,100,15.48,light snow
239,Longyearbyen,SJ,2022-07-19 02:36:32,78.2186,15.6401,53.44,66,75,11.5,broken clouds
240,Qaanaaq,GL,2022-07-19 02:36:32,77.484,-69.3632,42.42,69,16,2.21,few clouds
241,Boende,CD,2022-07-19 02:36:32,-0.2167,20.8667,69.76,98,100,1.99,overcast clouds
242,Trairi,BR,2022-07-19 02:36:18,-3.2778,-39.2689,76.41,83,37,9.28,scattered clouds
243,Kruisfontein,ZA,2022-07-19 02:36:33,-34.0033,24.7314,53.89,92,50,4.43,scattered clouds
244,Faanui,PF,2022-07-19 02:36:33,-16.4833,-151.75,76.55,72,2,6.55,clear sky
245,San Cristobal,VE,2022-07-19 02:33:45,7.7669,-72.225,69.98,84,99,2.33,overcast clouds
246,Rodrigues Alves,BR,2022-07-19 02:36:34,-7.738,-72.6509,71.56,99,99,1.68,overcast clouds
247,Julio De Castilhos,BR,2022-07-19 02:36:34,-29.2269,-53.6817,50.52,83,100,6.44,light rain
248,Ixtapa,MX,2022-07-19 02:36:35,20.7,-105.2,81.63,69,100,3.44,overcast clouds
249,Pangody,RU,2022-07-19 02:36:35,65.85,74.4859,66.2,48,27,9.73,scattered clouds
250,Sao Pedro Do Sul,BR,2022-07-19 02:36:35,-29.6206,-54.1789,47.05,86,84,4.41,broken clouds
251,Abalak,RU,2022-07-19 02:36:36,58.1286,68.5944,68.5,60,1,4.99,clear sky
252,Abasolo,MX,2022-07-19 02:36:36,20.45,-101.5167,57.54,97,100,6.85,overcast clouds
253,Xiaoshi,CN,2022-07-19 02:36:36,41.2971,124.1209,81.54,57,6,7.61,clear sky
254,Sao Jose Da Coroa Grande,BR,2022-07-19 02:36:37,-8.8978,-35.1478,74.21,83,58,11.14,broken clouds
255,Tasiilaq,GL,2022-07-19 02:36:37,65.6145,-37.6368,35.76,87,10,1.54,clear sky
256,Roma,US,2022-07-19 02:32:42,43.2128,-75.4557,71.96,93,100,12.66,light rain
257,Wakkanai,JP,2022-07-19 02:36:37,45.4094,141.6739,73.38,68,20,8.05,few clouds
258,Puerto Escondido,MX,2022-07-19 02:36:38,15.85,-97.0667,80.82,81,12,3.71,few clouds
259,Lima,PE,2022-07-19 02:33:07,-12.0432,-77.0282,59.9,86,100,12.66,mist
260,Chiredzi,ZW,2022-07-19 02:36:38,-21.05,31.6667,63.84,76,89,2.91,overcast clouds
261,Solton,RU,2022-07-19 02:36:39,52.8429,86.4787,56.93,92,94,8.77,overcast clouds
262,Maxixe,MZ,2022-07-19 02:35:10,-23.8597,35.3472,66.81,91,10,2.84,clear sky
263,Yetkul,RU,2022-07-19 02:36:39,54.8221,61.588,68.05,82,7,6.82,clear sky
264,Silver City,US,2022-07-19 02:36:39,32.7701,-108.2803,89.56,26,0,5.75,clear sky
265,Platteville,US,2022-07-19 02:36:40,42.7342,-90.4785,77.23,100,0,4.61,clear sky
266,Batticaloa,LK,2022-07-19 02:36:40,7.7102,81.6924,83.86,69,52,8.81,broken clouds
267,Husavik,IS,2022-07-19 02:36:40,66.0449,-17.3389,50.9,80,97,4.34,overcast clouds
268,Camacha,PT,2022-07-19 02:36:41,33.0833,-16.3333,65.62,77,40,9.22,scattered clouds
269,Menongue,AO,2022-07-19 02:36:41,-14.6585,17.691,44.1,60,0,4.79,clear sky
270,Sinnamary,GF,2022-07-19 02:36:41,5.3833,-52.95,78.62,86,100,8.19,overcast clouds
271,Sidi Ali,DZ,2022-07-19 02:36:42,36.0998,0.4206,73.49,79,0,1.23,clear sky
272,Solnechnyy,RU,2022-07-19 02:36:42,50.7214,136.6319,56.41,98,100,3.87,overcast clouds
273,Sayyan,YE,2022-07-19 02:36:42,15.1718,44.3244,63.93,45,99,3.96,overcast clouds
274,Deputatskiy,RU,2022-07-19 02:34:04,69.3,139.9,40.24,88,100,5.21,light rain
275,Aitape,PG,2022-07-19 02:37:43,-3.1374,142.3475,83.19,74,97,5.01,overcast clouds
276,Daru,PG,2022-07-19 02:37:44,-9.0763,143.2092,78.35,89,70,15.99,broken clouds
277,Port Macquarie,AU,2022-07-19 02:33:58,-31.4333,152.9167,60.89,67,14,12.77,few clouds
278,Hobyo,SO,2022-07-19 02:37:44,5.3505,48.5268,74.64,83,100,23.91,overcast clouds
279,Bathurst,AU,2022-07-19 02:37:45,-33.4166,149.5806,54.82,54,6,1.01,clear sky
280,Yavatmal,IN,2022-07-19 02:37:45,20.4,78.1333,71.65,93,96,11.05,overcast clouds
281,Svetlyy,RU,2022-07-19 02:37:45,54.675,20.1347,59.05,76,100,8.68,overcast clouds
282,Tabou,CI,2022-07-19 02:33:58,4.423,-7.3528,74.17,78,100,10.38,overcast clouds
283,Rocha,UY,2022-07-19 02:34:42,-34.4833,-54.3333,42.58,91,51,2.93,broken clouds
284,Acajutla,SV,2022-07-19 02:37:46,13.5928,-89.8275,80.65,81,100,6.02,overcast clouds
285,Chapada Dos Guimaraes,BR,2022-07-19 02:37:46,-15.4606,-55.7497,62.26,33,43,3.89,scattered clouds
286,Narsaq,GL,2022-07-19 02:37:47,60.9167,-46.05,48.42,74,19,1.25,few clouds
287,Port-Gentil,GA,2022-07-19 02:37:47,-0.7193,8.7815,74.07,78,100,12.28,overcast clouds
288,Sosnovka,RU,2022-07-19 02:37:48,56.255,51.2842,64.44,99,100,8.21,moderate rain
289,Rio Gallegos,AR,2022-07-19 02:37:48,-51.6226,-69.2181,35.65,80,0,16.11,clear sky
290,Shingu,JP,2022-07-19 02:33:35,33.7333,135.9833,83.14,85,100,13.62,moderate rain
291,Maniitsoq,GL,2022-07-19 02:37:49,65.4167,-52.9,44.2,90,100,1.77,overcast clouds
292,Srisailam,IN,2022-07-19 02:37:49,16.0833,78.8667,78.12,77,48,9.86,scattered clouds
293,Kloulklubed,PW,2022-07-19 02:37:49,7.0419,134.2556,77.5,70,86,2.39,overcast clouds
294,Taganak,PH,2022-07-19 02:37:50,6.0833,118.3,82.54,79,100,5.93,overcast clouds
295,Najran,SA,2022-07-19 02:37:50,17.4924,44.1277,81.25,31,100,2.35,overcast clouds
296,Bulgan,MN,2022-07-19 02:37:51,48.8125,103.5347,69.58,54,85,1.95,overcast clouds
297,Saint-Pierre,RE,2022-07-19 02:37:51,-21.3393,55.4781,67.91,72,0,21.85,clear sky
298,Poso,ID,2022-07-19 02:37:52,-1.3959,120.7524,85.89,56,90,0.69,overcast clouds
299,Jijiga,ET,2022-07-19 02:37:52,9.35,42.8,59.34,79,87,16.02,overcast clouds
300,Alofi,NU,2022-07-19 02:37:52,-19.0595,-169.9187,78.69,73,75,19.57,broken clouds
301,Simao,CN,2022-07-19 02:37:53,22.7886,100.9748,70.74,90,99,2.3,light rain
302,Jizan,SA,2022-07-19 02:37:53,17.3333,42.6667,85.14,48,82,1.39,broken clouds
303,Pontes E Lacerda,BR,2022-07-19 02:37:54,-15.2261,-59.3353,68.65,53,8,3.15,clear sky
304,Guiratinga,BR,2022-07-19 02:37:54,-16.3494,-53.7583,66.87,31,43,3.4,scattered clouds
305,Mandal,IN,2022-07-19 02:37:54,25.45,74.5667,83.88,72,16,13.06,few clouds
306,Farah,AF,2022-07-19 02:37:55,32.5,62.5,89.64,9,0,4.88,clear sky
307,Shakawe,BW,2022-07-19 02:37:55,-18.3667,21.85,47.73,64,0,4.72,clear sky
308,Petropavlivka,UA,2022-07-19 02:37:56,48.4564,36.4367,55.9,77,3,4.65,clear sky
309,Kahului,US,2022-07-19 02:37:56,20.8947,-156.47,82.42,61,20,26.46,few clouds
310,Dukat,RU,2022-07-19 02:37:57,62.55,155.55,76.82,53,85,13.2,light rain
311,Wanning,CN,2022-07-19 02:37:57,18.8003,110.3967,87.85,73,98,10.29,overcast clouds
312,Baykit,RU,2022-07-19 02:37:57,61.67,96.37,58.14,94,100,3.24,light rain
313,Venice,US,2022-07-19 02:33:41,27.0998,-82.4543,86.02,88,0,0.0,clear sky
314,Coihaique,CL,2022-07-19 02:33:04,-45.5752,-72.0662,39.15,81,100,5.75,light rain
315,Comodoro Rivadavia,AR,2022-07-19 02:33:52,-45.8667,-67.5,46.26,46,0,32.21,clear sky
316,Santa Maria,BR,2022-07-19 02:37:58,-29.6842,-53.8069,47.5,100,0,4.61,clear sky
317,Mollendo,PE,2022-07-19 02:37:59,-17.0231,-72.0147,60.13,84,97,8.34,overcast clouds
318,Wawa,NG,2022-07-19 02:37:59,9.9022,4.4192,71.08,89,93,6.2,overcast clouds
319,Kumla,SE,2022-07-19 02:38:00,59.1277,15.1434,62.01,88,100,6.91,overcast clouds
320,Saint George,US,2022-07-19 02:35:36,37.1041,-113.5841,101.62,20,0,9.22,clear sky
321,Muroto,JP,2022-07-19 02:39:00,33.2833,134.15,81.27,86,100,24.85,light rain
322,Muisne,EC,2022-07-19 02:39:01,0.6,-80.0333,73.62,89,100,7.56,overcast clouds
323,Belogorsk,RU,2022-07-19 02:39:01,50.9158,128.4611,79.36,60,82,4.41,broken clouds
324,Oga,IT,2022-07-19 02:39:01,46.4631,10.347,57.81,86,5,1.21,clear sky
325,Hirara,JP,2022-07-19 02:36:28,24.8,125.2833,89.87,70,75,20.71,broken clouds
326,Pafos,CY,2022-07-19 02:37:58,34.7667,32.4167,76.78,38,0,8.05,clear sky
327,Fengcheng,CN,2022-07-19 02:39:02,40.4536,124.0717,81.81,67,0,4.56,clear sky
328,Trelew,AR,2022-07-19 02:39:02,-43.249,-65.3051,40.84,46,0,10.07,clear sky
329,Hamilton,US,2022-07-19 02:39:03,39.1834,-84.5333,75.24,89,0,0.0,clear sky
330,Chany,RU,2022-07-19 02:39:03,55.3121,76.7647,66.47,63,29,8.23,scattered clouds
331,Tumbes,PE,2022-07-19 02:39:03,-3.5667,-80.4414,69.75,83,75,3.44,broken clouds
332,Namatanai,PG,2022-07-19 02:39:04,-3.6667,152.4333,85.75,62,71,7.87,broken clouds
333,Katobu,ID,2022-07-19 02:39:04,-4.9408,122.5276,81.54,70,100,7.76,overcast clouds
334,Luanda,AO,2022-07-19 02:35:49,-8.8368,13.2343,69.37,87,97,3.62,overcast clouds
335,Sokna,NO,2022-07-19 02:39:05,60.24,9.9235,51.39,87,42,2.75,scattered clouds
336,Korbach,DE,2022-07-19 02:39:05,51.2756,8.873,62.58,56,1,3.65,clear sky
337,Papara,BR,2022-07-19 02:39:06,-3.9839,-38.7273,77.4,93,5,2.51,clear sky
338,Masyaf,SY,2022-07-19 02:39:06,35.0653,36.3406,72.72,54,0,4.74,clear sky
339,Saint-Augustin,CA,2022-07-19 02:39:07,51.226,-58.6502,62.22,68,33,5.55,scattered clouds
340,Zaragoza,ES,2022-07-19 02:34:13,41.6561,-0.8773,80.02,60,0,12.66,clear sky
341,Miraflores,MX,2022-07-19 02:39:07,19.2167,-98.8083,65.05,89,97,2.33,overcast clouds
342,Naryan-Mar,RU,2022-07-19 02:39:07,67.6713,53.087,66.61,68,95,10.33,overcast clouds
343,Chunhuhub,MX,2022-07-19 02:39:08,19.55,-88.6833,80.29,75,65,6.31,broken clouds
344,Kitimat,CA,2022-07-19 02:39:08,54.0524,-128.6534,62.98,29,100,3.89,overcast clouds
345,Tessalit,ML,2022-07-19 02:39:09,20.1986,1.0114,84.87,46,34,12.12,scattered clouds
346,Morant Bay,JM,2022-07-19 02:39:09,17.8815,-76.4093,83.82,85,47,9.64,scattered clouds
347,Dwarka,IN,2022-07-19 02:39:10,22.2394,68.9678,82.04,83,80,13.02,broken clouds
348,Kieta,PG,2022-07-19 02:39:10,-6.2167,155.6333,84.42,68,96,5.88,overcast clouds
349,Viedma,AR,2022-07-19 02:39:10,-40.8135,-62.9967,40.03,38,31,10.56,scattered clouds
350,Mecca,SA,2022-07-19 02:39:11,21.4267,39.8261,85.64,24,31,5.46,scattered clouds
351,Madison,US,2022-07-19 02:38:37,34.7334,-86.5667,78.15,81,75,4.61,broken clouds
352,Maldonado,UY,2022-07-19 02:39:12,-34.6667,-54.9167,42.19,88,68,0.4,broken clouds
353,Lao Cai,VN,2022-07-19 02:39:12,22.4833,103.95,91.11,63,100,2.37,overcast clouds
354,Ribas Do Rio Pardo,BR,2022-07-19 02:39:12,-20.4431,-53.7592,70.39,58,100,3.04,overcast clouds
355,Aberdeen,GB,2022-07-19 02:39:13,57.1437,-2.0981,66.54,68,100,1.14,overcast clouds
356,Flic En Flac,MU,2022-07-19 02:39:13,-20.2742,57.3631,69.53,73,28,18.54,scattered clouds
357,Puerto Cabezas,NI,2022-07-19 02:39:14,14.0351,-83.3888,79.0,89,100,13.24,overcast clouds
358,Orlik,RU,2022-07-19 02:39:14,52.5178,99.825,51.62,95,100,5.44,moderate rain
359,Buta,CD,2022-07-19 02:39:15,2.7858,24.73,69.13,99,100,0.85,moderate rain
360,Lavrentiya,RU,2022-07-19 02:39:15,65.5833,-171.0,37.54,90,99,21.14,light rain
361,Coos Bay,US,2022-07-19 02:39:16,43.3665,-124.2179,73.31,86,0,26.46,clear sky
362,Arawa,PG,2022-07-19 02:39:16,-6.2132,155.5367,86.13,65,93,5.23,overcast clouds
363,Mariental,NA,2022-07-19 02:39:13,-24.6333,17.9667,51.19,36,0,9.62,clear sky
364,Rehoboth,NA,2022-07-19 02:39:17,-23.3167,17.0833,49.05,39,0,6.87,clear sky
365,Ust-Nera,RU,2022-07-19 02:39:17,64.5667,143.2,82.49,45,100,8.34,overcast clouds
366,Nagato,JP,2022-07-19 02:40:18,34.3833,131.2,79.43,92,99,14.07,overcast clouds
367,Souillac,MU,2022-07-19 02:40:18,-20.5167,57.5167,68.38,73,40,17.27,light rain
368,Huarmey,PE,2022-07-19 02:40:18,-10.0681,-78.1522,62.29,86,100,9.28,overcast clouds
369,Vangaindrano,MG,2022-07-19 02:40:19,-23.35,47.6,66.81,79,100,6.4,overcast clouds
370,Antalaha,MG,2022-07-19 02:40:19,-14.9003,50.2788,65.84,85,41,7.11,scattered clouds
371,Alamogordo,US,2022-07-19 02:40:19,32.8995,-105.9603,92.55,27,0,8.05,clear sky
372,Dalvik,IS,2022-07-19 02:40:20,65.9702,-18.5286,55.33,82,99,2.3,overcast clouds
373,Muravlenko,RU,2022-07-19 02:40:20,63.7898,74.523,66.78,49,24,14.76,few clouds
374,Kimry,RU,2022-07-19 02:40:03,56.8667,37.35,53.89,87,69,7.7,broken clouds
375,Tibati,CM,2022-07-19 02:40:21,6.4667,12.6333,64.6,98,100,1.07,light rain
376,Grand-Santi,GF,2022-07-19 02:40:21,4.25,-54.3833,73.72,99,100,2.06,overcast clouds
377,Walvis Bay,NA,2022-07-19 02:40:22,-22.9575,14.5053,54.09,93,3,6.91,clear sky
378,Emba,KZ,2022-07-19 02:40:22,48.8264,58.1442,89.49,23,4,15.64,clear sky
379,Riyadh,SA,2022-07-19 02:40:23,24.6877,46.7219,87.94,14,82,7.36,broken clouds
380,Takoradi,GH,2022-07-19 02:40:23,4.8845,-1.7554,74.34,82,99,9.19,overcast clouds
381,Chaumont,FR,2022-07-19 02:40:23,48.1167,5.1333,68.36,48,1,6.06,clear sky
382,Pokaran,IN,2022-07-19 02:40:24,26.9167,71.9167,87.58,68,51,10.69,broken clouds
383,Kisangani,CD,2022-07-19 02:40:24,0.5167,25.2,69.22,99,100,1.54,light rain
384,Kjollefjord,NO,2022-07-19 02:40:24,70.9457,27.3465,60.62,72,20,3.44,few clouds
385,Pochutla,MX,2022-07-19 02:40:25,15.7432,-96.4661,76.75,84,1,3.51,clear sky
386,Kinablangan,PH,2022-07-19 02:40:25,7.6947,126.5503,83.73,68,86,5.12,overcast clouds
387,Dakar,SN,2022-07-19 02:40:26,14.6937,-17.4441,81.48,78,82,12.73,broken clouds
388,Karratha,AU,2022-07-19 02:40:26,-20.7377,116.8463,77.5,35,5,10.71,clear sky
389,Methoni,GR,2022-07-19 02:40:27,36.8197,21.7049,75.06,49,0,6.02,clear sky
390,Tateyama,JP,2022-07-19 02:40:27,34.9833,139.8667,80.53,94,75,17.27,heavy intensity shower rain
391,Mocuba,MZ,2022-07-19 02:40:27,-16.8392,36.9856,62.08,98,7,1.32,clear sky
392,Karla,EE,2022-07-19 02:40:28,59.3723,24.9275,60.57,93,20,3.44,few clouds
393,Buenos Aires,AR,2022-07-19 02:37:08,-34.6132,-58.3772,51.53,55,0,3.44,clear sky
394,Carutapera,BR,2022-07-19 02:40:28,-1.195,-46.02,74.1,94,42,5.86,scattered clouds
395,Mitzic,GA,2022-07-19 02:40:29,0.7821,11.549,67.8,95,99,3.11,overcast clouds
396,Abha,SA,2022-07-19 02:40:29,18.2164,42.5053,66.45,32,0,0.0,clear sky
397,Kamthi,IN,2022-07-19 02:40:30,21.2333,79.2,75.54,91,100,12.88,overcast clouds
398,Lensk,RU,2022-07-19 02:40:30,60.7253,114.9278,61.2,87,100,0.87,overcast clouds
399,Hammerfest,NO,2022-07-19 02:40:30,70.6634,23.6821,50.45,100,100,3.44,fog
400,Mackenzie,CA,2022-07-19 02:40:31,55.2999,-123.1698,68.22,52,100,10.36,overcast clouds
401,Weiser,US,2022-07-19 02:35:36,44.251,-116.9693,89.8,29,0,4.0,clear sky
402,Aksehir,TR,2022-07-19 02:40:31,38.3575,31.4164,60.84,60,47,5.75,scattered clouds
403,Sokolo,ML,2022-07-19 02:40:32,14.7328,-6.1219,83.82,61,83,10.04,broken clouds
404,Toora-Khem,RU,2022-07-19 02:40:32,52.4675,96.11,63.07,41,89,6.71,overcast clouds
405,Talnakh,RU,2022-07-19 02:37:15,69.4865,88.3972,63.21,39,76,7.29,broken clouds
406,Bardiyah,LY,2022-07-19 02:40:32,31.7561,25.0865,76.39,74,0,15.77,clear sky
407,Sao Joao Da Barra,BR,2022-07-19 02:40:33,-21.6403,-41.0511,70.45,88,31,8.95,scattered clouds
408,Cabedelo,BR,2022-07-19 02:40:33,-6.9811,-34.8339,74.07,86,40,15.12,scattered clouds
409,Barreirinha,BR,2022-07-19 02:40:34,-2.7933,-57.07,76.98,73,99,3.33,overcast clouds
410,Ahuimanu,US,2022-07-19 02:37:50,21.4447,-157.8378,83.91,72,100,18.41,overcast clouds
411,Lagos,NG,2022-07-19 02:40:34,6.5833,3.75,73.51,84,100,4.27,overcast clouds
412,Darhan,MN,2022-07-19 02:37:36,49.4867,105.9228,78.71,39,66,3.8,broken clouds
413,Avera,US,2022-07-19 02:40:35,33.194,-82.5271,82.45,65,98,7.81,overcast clouds
414,Labuhan,ID,2022-07-19 02:41:35,-6.8844,112.2051,84.0,68,43,5.41,scattered clouds
415,Sao Gabriel Da Cachoeira,BR,2022-07-19 02:41:36,-0.1303,-67.0892,71.89,99,71,1.45,broken clouds
416,Odessa,UA,2022-07-19 02:41:36,46.4775,30.7326,64.92,54,1,9.71,clear sky
417,Koratla,IN,2022-07-19 02:41:37,18.8167,78.7167,77.16,87,91,10.0,overcast clouds
418,Port Hardy,CA,2022-07-19 02:41:37,50.6996,-127.4199,64.58,82,100,6.91,overcast clouds
419,Biak,ID,2022-07-19 02:41:37,-0.9131,122.8766,77.56,80,98,5.88,overcast clouds
420,Altamira,BR,2022-07-19 02:39:04,-3.2033,-52.2064,76.69,73,97,2.35,overcast clouds
421,Russell,US,2022-07-19 02:41:38,32.3502,-85.1999,78.4,94,0,5.75,clear sky
422,La Rioja,ES,2022-07-19 02:41:38,42.25,-2.5,71.38,38,2,6.33,clear sky
423,La Primavera,CO,2022-07-19 02:41:39,5.4906,-70.4092,74.14,92,88,1.48,overcast clouds
424,Bairiki,KI,2022-07-19 02:41:39,1.3292,172.9752,86.0,70,40,9.22,scattered clouds
425,Neuquen,AR,2022-07-19 02:41:40,-38.9516,-68.0591,31.89,86,0,0.0,clear sky
426,Eniwa,JP,2022-07-19 02:41:40,42.8779,141.5442,80.65,59,75,14.97,broken clouds
427,Meadow Lake,US,2022-07-19 02:41:41,34.8014,-106.5436,92.28,33,86,3.13,overcast clouds
428,Allada,BJ,2022-07-19 02:41:41,6.6655,2.1514,75.96,92,93,4.09,overcast clouds
429,Ust-Kuyga,RU,2022-07-19 02:41:41,70.0167,135.6,42.93,82,100,15.3,light rain
430,Pisco,PE,2022-07-19 02:41:42,-13.7,-76.2167,59.05,88,100,2.3,mist
431,Dobeln,DE,2022-07-19 02:41:42,51.1167,13.1167,63.21,50,19,6.51,few clouds
432,San Carlos,VE,2022-07-19 02:37:48,9.6612,-68.5827,72.05,98,88,1.41,overcast clouds
433,Emerald,AU,2022-07-19 02:39:44,-23.5333,148.1667,69.35,42,0,9.53,clear sky
434,Sohag,EG,2022-07-19 02:41:43,26.557,31.6948,80.89,28,1,7.36,clear sky
435,Bambanglipuro,ID,2022-07-19 02:41:43,-7.95,110.2833,82.72,70,6,10.16,clear sky
436,Devils Lake,US,2022-07-19 02:41:44,48.1128,-98.8651,84.18,86,0,11.99,clear sky
437,Wattegama,LK,2022-07-19 02:41:44,6.7989,81.4808,85.66,60,89,2.33,overcast clouds
438,Half Moon Bay,US,2022-07-19 02:41:40,37.4636,-122.4286,79.03,75,0,16.11,mist
439,Chapais,CA,2022-07-19 02:41:44,49.7834,-74.8492,71.38,69,100,7.36,overcast clouds
440,Tan An,VN,2022-07-19 02:41:45,10.5333,106.4167,86.02,70,81,8.95,light rain
441,Sandnessjoen,NO,2022-07-19 02:41:45,66.0217,12.6316,49.64,95,100,5.01,light rain
442,Iroquois Falls,CA,2022-07-19 02:41:46,48.7669,-80.6831,60.96,96,81,5.99,light rain
443,Itapecerica,BR,2022-07-19 02:41:46,-20.4725,-45.1256,59.59,63,10,4.74,clear sky
444,Agnibilekrou,CI,2022-07-19 02:41:47,7.1344,-3.2047,64.62,97,96,2.71,overcast clouds
445,Camocim,BR,2022-07-19 02:41:47,-2.9022,-40.8411,75.74,78,13,12.17,few clouds
446,Gospic,HR,2022-07-19 02:41:47,44.5461,15.3747,62.29,50,56,6.24,broken clouds
447,Dargaville,NZ,2022-07-19 02:41:48,-35.9333,173.8833,63.03,78,100,8.21,overcast clouds
448,Atambua,ID,2022-07-19 02:41:48,-9.1061,124.8925,79.61,44,81,1.77,broken clouds
449,Cozumel,MX,2022-07-19 02:41:48,20.5083,-86.9458,84.27,78,40,4.0,scattered clouds
450,Nome,US,2022-07-19 02:41:49,64.5011,-165.4064,44.67,76,100,32.21,light rain
451,Burnie,AU,2022-07-19 02:41:49,-41.0667,145.9167,50.58,46,0,2.21,clear sky
452,Esna,EG,2022-07-19 02:41:50,25.2934,32.554,82.42,22,0,8.34,clear sky
453,George Town,MY,2022-07-19 02:41:34,5.4112,100.3354,82.89,88,20,5.01,few clouds
454,Kambove,CD,2022-07-19 02:41:50,-10.8764,26.5969,51.55,67,0,4.23,clear sky
455,Bafq,IR,2022-07-19 02:41:50,31.6128,55.4107,86.07,12,0,5.61,clear sky
456,Abu Zabad,SD,2022-07-19 02:41:51,12.35,29.25,74.43,72,100,8.59,light rain
457,Balykshi,KZ,2022-07-19 02:41:51,47.0667,51.8667,77.0,53,0,11.18,clear sky
458,Kutum,SD,2022-07-19 02:41:51,14.2,24.6667,75.07,61,72,4.03,broken clouds
459,Jiamusi,CN,2022-07-19 02:39:07,46.8333,130.35,69.91,86,100,6.87,light rain
460,Poum,NC,2022-07-19 02:41:52,-20.2333,164.0167,76.51,83,71,10.16,broken clouds
461,Jinchang,CN,2022-07-19 02:42:52,38.4953,102.1739,75.54,29,83,5.5,broken clouds
462,Marzuq,YE,2022-07-19 02:42:53,14.4,46.4667,77.05,52,100,7.31,overcast clouds
463,Lesnoye,RU,2022-07-19 02:42:53,58.2841,35.5158,50.49,92,44,6.26,scattered clouds
464,Chifeng,CN,2022-07-19 02:42:53,42.2683,118.9636,80.13,42,9,6.08,clear sky
465,Kaliganj,BD,2022-07-19 02:42:54,23.4095,89.1402,88.16,67,100,9.4,overcast clouds
466,Atasu,KZ,2022-07-19 02:41:17,48.6814,71.6433,74.35,44,1,14.36,clear sky
467,Kyra,RU,2022-07-19 02:42:54,49.5776,111.9753,77.34,47,47,8.1,scattered clouds
468,Apac,UG,2022-07-19 02:42:54,1.9756,32.5386,65.98,77,100,2.82,overcast clouds
469,Kapit,MY,2022-07-19 02:42:55,2.0167,112.9333,90.36,54,98,1.21,overcast clouds
470,Qujing,CN,2022-07-19 02:39:08,25.4833,103.7833,71.35,81,100,6.89,light rain
471,Trapani,IT,2022-07-19 02:42:55,37.8333,12.6667,77.88,68,0,4.61,clear sky
472,Oktyabrskiy,RU,2022-07-19 02:42:56,54.4815,53.471,68.74,83,63,5.1,light rain
473,Bogande,BF,2022-07-19 02:42:56,12.9714,-0.1436,74.88,84,100,11.23,light rain
474,Tura,IN,2022-07-19 02:42:56,25.5198,90.2201,79.79,85,100,7.23,overcast clouds
475,Marsala,IT,2022-07-19 02:42:57,37.7966,12.4352,74.89,68,0,4.61,clear sky
476,Sangmelima,CM,2022-07-19 02:42:57,2.9333,11.9833,64.53,99,100,2.95,overcast clouds
477,Atar,MR,2022-07-19 02:42:58,20.5169,-13.0499,90.5,38,7,6.96,clear sky
478,Vieste,IT,2022-07-19 02:42:58,41.8825,16.175,76.51,60,0,12.44,clear sky
479,Eydhafushi,MV,2022-07-19 02:42:59,5.1033,73.0708,82.13,78,100,18.77,overcast clouds
480,Amanganj,IN,2022-07-19 02:42:59,24.4333,80.0333,86.16,68,31,7.99,scattered clouds
481,Longonjo,AO,2022-07-19 02:42:59,-12.9067,15.2533,55.09,51,5,1.39,clear sky
482,Bella Vista,US,2022-07-19 02:42:59,36.4295,-94.2316,88.48,47,0,6.91,clear sky
483,Sao Filipe,CV,2022-07-19 02:43:00,14.8961,-24.4956,75.22,82,95,8.28,overcast clouds
484,Makokou,GA,2022-07-19 02:43:00,0.5738,12.8642,68.85,96,100,2.44,light rain
485,Tsabong,BW,2022-07-19 02:43:00,-26.0217,22.401,52.86,47,0,12.08,clear sky
486,Naron,ES,2022-07-19 02:43:01,43.5167,-8.1528,67.05,80,2,13.04,clear sky
487,Lethem,GY,2022-07-19 02:43:01,3.3803,-59.7968,74.75,92,81,4.25,broken clouds
488,Xam Nua,LA,2022-07-19 02:43:01,20.4197,104.0439,84.97,56,100,4.14,overcast clouds
489,Maningrida,AU,2022-07-19 02:43:02,-12.0667,134.2667,87.1,38,98,8.01,overcast clouds
490,Ponta Delgada,PT,2022-07-19 02:43:02,37.7333,-25.6667,72.32,83,75,6.91,broken clouds
491,Caravelas,BR,2022-07-19 02:43:02,-17.7125,-39.2481,70.14,88,30,5.46,scattered clouds
492,Guanica,PR,2022-07-19 02:43:03,17.9716,-66.908,81.99,84,0,8.84,clear sky
493,Prince Rupert,CA,2022-07-19 02:39:47,54.3161,-130.3201,55.09,94,100,8.05,light rain
494,Porto Novo,BJ,2022-07-19 02:43:00,6.4965,2.6036,76.82,83,93,5.7,overcast clouds
495,Asilah,MA,2022-07-19 02:43:03,35.465,-6.0348,71.56,82,0,2.73,clear sky
496,Kichera,RU,2022-07-19 02:43:04,55.9375,110.0997,80.04,41,46,5.44,scattered clouds
497,Guarapari,BR,2022-07-19 02:43:04,-20.6667,-40.4975,68.9,91,2,5.1,clear sky
498,Haines Junction,CA,2022-07-19 02:43:05,60.7522,-137.5108,58.95,63,39,10.36,scattered clouds
499,Sovetskiy,RU,2022-07-19 02:43:05,61.3614,63.5842,71.1,42,2,2.15,clear sky
500,Bonthe,SL,2022-07-19 02:43:05,7.5264,-12.505,76.59,83,100,15.23,light rain
501,La Asuncion,VE,2022-07-19 02:43:06,11.0333,-63.8628,80.33,83,39,14.97,scattered clouds
502,Canakkale,TR,2022-07-19 02:43:06,40.0833,26.8333,61.38,68,0,14.38,clear sky
503,Suba,PH,2022-07-19 02:43:06,10.8438,121.0102,77.07,90,100,9.62,light rain
504,Stulovo,RU,2022-07-19 02:43:07,58.7225,50.1439,63.03,99,100,11.25,heavy intensity rain
505,Lozovik,RS,2022-07-19 02:43:07,44.4677,21.1007,55.72,51,11,2.59,few clouds
506,Salalah,OM,2022-07-19 02:43:07,17.0151,54.0924,75.29,100,100,5.75,light intensity drizzle
507,Yining,CN,2022-07-19 02:43:08,29.0361,114.5636,83.05,84,100,3.09,overcast clouds
508,Manokwari,ID,2022-07-19 02:44:08,-0.8667,134.0833,83.05,69,94,4.12,overcast clouds
509,Rong Kwang,TH,2022-07-19 02:44:08,18.339,100.3174,87.28,73,100,3.83,overcast clouds
510,Raudeberg,NO,2022-07-19 02:44:09,61.9875,5.1352,52.95,81,78,6.06,broken clouds
511,Lebowakgomo,ZA,2022-07-19 02:44:09,-24.2,29.5,45.5,80,0,2.91,clear sky
512,Nouadhibou,MR,2022-07-19 02:44:10,20.931,-17.0347,69.78,83,37,9.22,scattered clouds
513,Mount Gambier,AU,2022-07-19 02:44:10,-37.8333,140.7667,52.32,54,42,6.42,scattered clouds
514,Andros Town,BS,2022-07-19 02:44:10,24.7,-77.7667,84.16,74,6,12.46,clear sky
515,Egvekinot,RU,2022-07-19 02:44:11,66.3167,-179.1667,52.11,47,100,2.59,overcast clouds
516,Ilebo,CD,2022-07-19 02:44:11,-4.3167,20.5833,69.13,97,90,0.96,overcast clouds
517,Ambon,ID,2022-07-19 02:44:12,-3.6954,128.1814,77.14,88,75,1.14,light rain
518,Pitanga,BR,2022-07-19 02:44:12,-24.7572,-51.7614,56.25,99,51,3.02,broken clouds
519,Ende,ID,2022-07-19 02:44:12,-8.8432,121.6623,81.48,60,21,4.36,few clouds
520,Korla,CN,2022-07-19 02:44:13,41.7597,86.1469,87.55,16,60,16.24,broken clouds
521,Dongzhen,CN,2022-07-19 02:44:13,22.3797,110.9389,89.58,67,100,9.57,overcast clouds
522,Ekibastuz,KZ,2022-07-19 02:44:14,51.6667,75.3667,71.38,42,68,6.22,broken clouds
523,Calbuco,CL,2022-07-19 02:44:14,-41.768,-73.1273,34.81,81,4,11.12,clear sky
524,Sistranda,NO,2022-07-19 02:44:15,63.7256,8.834,51.76,86,95,15.1,overcast clouds
525,Katsuura,JP,2022-07-19 02:44:15,35.1333,140.3,82.42,86,100,20.54,heavy intensity rain
526,Presidencia Roque Saenz Pena,AR,2022-07-19 02:44:16,-26.7852,-60.4388,54.61,64,100,4.16,overcast clouds
527,Anaconda,US,2022-07-19 02:44:16,46.1285,-112.9423,67.19,44,0,7.49,clear sky
528,Nishihara,JP,2022-07-19 02:44:17,26.1842,127.7558,87.85,81,75,11.5,broken clouds
529,Saint-Denis,FR,2022-07-19 02:44:17,48.9167,2.3333,80.38,43,0,9.22,clear sky
530,Zima,RU,2022-07-19 02:44:17,53.9202,102.0442,66.29,54,100,9.4,overcast clouds
531,Baicheng,CN,2022-07-19 02:44:18,45.6167,122.8167,79.36,60,52,10.47,broken clouds
532,Yeniseysk,RU,2022-07-19 02:44:18,58.4497,92.1703,56.95,96,100,1.39,light rain
533,Kamenica,DE,2022-07-19 02:44:19,50.8333,12.9167,63.75,52,17,5.91,few clouds
534,Cabra,ES,2022-07-19 02:44:19,37.4725,-4.4421,74.66,60,0,0.31,clear sky
535,Chulman,RU,2022-07-19 02:44:20,56.8479,124.9104,64.83,82,100,4.29,overcast clouds
536,Sorland,NO,2022-07-19 02:44:20,67.667,12.6934,51.66,84,95,10.92,overcast clouds
537,Naze,JP,2022-07-19 02:44:20,28.3667,129.4833,85.12,79,100,16.75,overcast clouds
538,Puerto Palomas,MX,2022-07-19 02:44:21,31.7667,-107.6167,94.75,15,27,4.29,scattered clouds
539,Chuzhou,CN,2022-07-19 02:44:21,32.3219,118.2978,89.26,58,53,4.12,broken clouds
540,Buchanan,LR,2022-07-19 02:44:22,5.8808,-10.0467,74.95,82,99,11.07,overcast clouds
541,Plouzane,FR,2022-07-19 02:44:22,48.3833,-4.6167,66.52,100,100,11.5,fog
542,Maraba,BR,2022-07-19 02:44:22,-5.3686,-49.1178,73.58,94,0,0.0,clear sky
543,Vila Franca Do Campo,PT,2022-07-19 02:44:23,37.7167,-25.4333,72.01,95,60,2.3,broken clouds
544,Mantua,IT,2022-07-19 02:44:23,45.1667,10.7833,78.04,75,1,3.0,clear sky
545,Sladkovo,RU,2022-07-19 02:44:24,55.5284,70.3385,66.9,63,1,7.18,clear sky
546,Lamu,KE,2022-07-19 02:44:24,-2.2717,40.902,73.62,77,90,16.42,overcast clouds
547,Narnaund,IN,2022-07-19 02:44:25,29.2167,76.15,95.45,46,1,5.59,clear sky
548,Port Lincoln,AU,2022-07-19 02:39:26,-34.7333,135.8667,54.34,59,100,15.52,overcast clouds
549,Larsnes,NO,2022-07-19 02:44:25,62.2028,5.5773,57.45,83,94,3.71,overcast clouds
550,Santander,ES,2022-07-19 02:44:26,43.4647,-3.8044,69.46,79,0,5.75,clear sky
551,Padang,ID,2022-07-19 02:44:26,-0.9492,100.3543,80.65,56,10,3.11,clear sky
552,Ust-Ilimsk,RU,2022-07-19 02:44:27,58.0006,102.6619,67.5,49,100,5.19,overcast clouds
553,Komsomolskiy,UZ,2022-07-19 02:44:27,40.4272,71.7189,86.72,23,0,4.61,clear sky
554,Luena,AO,2022-07-19 02:45:27,-11.7833,19.9167,47.1,59,3,3.98,clear sky
555,Shakiso,ET,2022-07-19 02:45:28,5.75,38.9167,56.89,91,100,1.39,overcast clouds
556,Sayan,PE,2022-07-19 02:45:28,-11.1361,-77.1933,66.99,62,94,1.9,overcast clouds
557,Nakamura,JP,2022-07-19 02:45:28,32.9833,132.9333,81.46,84,100,8.46,moderate rain
558,Novo Oriente,BR,2022-07-19 02:45:29,-5.5344,-40.7742,70.5,54,3,5.19,clear sky
559,Pitimbu,BR,2022-07-19 02:45:29,-7.4706,-34.8086,73.99,85,39,14.45,scattered clouds
560,San Quintin,MX,2022-07-19 02:45:29,30.4833,-115.95,69.51,78,1,7.81,clear sky
561,Iquique,CL,2022-07-19 02:42:11,-20.2208,-70.1431,59.04,74,83,4.41,broken clouds
562,Penticton,CA,2022-07-19 02:45:30,49.4806,-119.5858,84.09,24,20,13.8,few clouds
563,Razgrad,BG,2022-07-19 02:45:30,43.5333,26.5167,57.06,47,4,1.66,clear sky
564,Tyup,KG,2022-07-19 02:45:30,42.7276,78.3648,70.81,49,0,3.33,clear sky
565,Huilong,CN,2022-07-19 02:45:31,31.8111,121.655,83.48,72,82,1.23,broken clouds
566,San Isidro,PE,2022-07-19 02:45:31,-12.1167,-77.05,61.02,86,100,12.66,mist
567,Plainview,US,2022-07-19 02:42:41,40.7765,-73.4673,79.47,83,40,18.41,scattered clouds
568,Kampot,KH,2022-07-19 02:45:32,10.6167,104.1833,87.85,69,67,9.73,broken clouds
569,Mwingi,KE,2022-07-19 02:45:32,-0.9344,38.0601,62.6,79,93,6.33,overcast clouds
570,Cartaya,ES,2022-07-19 02:45:32,37.2811,-7.1507,69.3,58,0,15.82,clear sky
571,Verkhovazhye,RU,2022-07-19 02:45:33,60.7472,42.0465,54.9,97,100,12.62,light rain
572,Bolshoy Lug,RU,2022-07-19 02:45:33,52.0779,104.0919,59.18,98,100,5.99,light rain
573,Parker,US,2022-07-19 02:43:51,32.7668,-97.8003,98.71,30,4,11.81,clear sky
574,Kimberley,ZA,2022-07-19 02:45:34,-28.7323,24.7623,40.69,87,0,8.05,clear sky
575,Yar-Sale,RU,2022-07-19 02:45:34,66.8333,70.8333,61.61,53,100,9.22,overcast clouds
576,Hami,CN,2022-07-19 02:45:34,42.8,93.45,88.05,20,100,2.73,overcast clouds
577,Jonesboro,US,2022-07-19 02:45:35,35.8423,-90.7043,80.42,83,0,3.44,clear sky
578,Messina,IT,2022-07-19 02:45:35,38.1933,15.5497,79.38,64,0,1.99,clear sky
579,Siavonga,ZM,2022-07-19 02:45:35,-16.5382,28.7088,58.69,70,9,3.09,clear sky
580,Kabompo,ZM,2022-07-19 02:45:36,-13.5927,24.2008,44.29,81,5,4.25,clear sky
581,Bandarbeyla,SO,2022-07-19 02:45:36,9.4942,50.8122,77.5,63,89,28.95,overcast clouds
582,Ayagoz,KZ,2022-07-19 02:41:18,47.9714,80.4392,71.64,30,0,9.4,clear sky
583,Tazmalt,DZ,2022-07-19 02:45:36,36.3868,4.3989,81.01,36,0,3.36,clear sky
584,Gorom-Gorom,BF,2022-07-19 02:45:37,14.4439,-0.2361,77.76,72,100,12.03,light rain
585,Bengkulu,ID,2022-07-19 02:45:37,-3.8004,102.2655,83.17,68,36,2.13,scattered clouds
586,Bandar-E Lengeh,IR,2022-07-19 02:45:38,26.5579,54.8807,91.51,75,97,6.91,haze
587,Sibolga,ID,2022-07-19 02:45:38,1.7427,98.7792,85.35,64,85,3.38,overcast clouds
588,Payo,ID,2022-07-19 02:45:38,-3.7508,103.6372,86.34,60,84,3.44,broken clouds
589,Saurimo,AO,2022-07-19 02:45:39,-9.6608,20.3916,55.99,49,3,5.21,clear sky
590,Bhadra,IN,2022-07-19 02:45:39,29.1167,75.1667,96.66,44,17,5.61,few clouds
591,College,US,2022-07-19 02:45:40,64.8569,-147.8028,64.99,64,75,8.05,broken clouds
592,Vikhorevka,RU,2022-07-19 02:45:40,56.1201,101.1636,63.99,49,94,6.78,overcast clouds
593,Mul,IN,2022-07-19 02:45:40,20.0667,79.6667,77.9,85,83,10.31,broken clouds
594,Nhulunbuy,AU,2022-07-19 02:45:41,-12.2333,136.7667,83.01,51,0,14.97,clear sky
595,Bay Roberts,CA,2022-07-19 02:45:41,47.5999,-53.2648,65.14,92,99,7.0,overcast clouds
596,Juneau,US,2022-07-19 02:42:58,58.3019,-134.4197,58.21,93,100,9.22,overcast clouds
597,Tornabe,HN,2022-07-19 02:45:41,15.75,-87.55,77.59,94,100,5.03,overcast clouds
598,Dawson Creek,CA,2022-07-19 02:45:42,55.7666,-120.2362,73.04,46,20,17.27,few clouds
599,Roald,NO,2022-07-19 02:45:42,62.5833,6.1333,57.76,87,100,6.91,overcast clouds
600,Camopi,GF,2022-07-19 02:45:43,3.1655,-52.3158,71.71,99,65,2.26,broken clouds
601,Vaitape,PF,2022-07-19 02:45:43,-16.5167,-151.75,76.57,71,8,6.4,clear sky
602,Schleiden,DE,2022-07-19 02:46:44,50.5295,6.477,69.08,46,5,5.26,clear sky
603,Itacarambi,BR,2022-07-19 02:46:44,-15.1022,-44.0919,69.4,57,51,5.5,broken clouds
604,Opuwo,NA,2022-07-19 02:46:45,-18.0607,13.84,53.98,41,0,4.47,clear sky
605,Gayeri,BF,2022-07-19 02:46:45,12.6497,0.4931,73.54,92,100,12.44,overcast clouds
606,Turan,VN,2022-07-19 02:46:46,16.0678,108.2208,94.98,55,20,3.44,few clouds
607,Katav-Ivanovsk,RU,2022-07-19 02:46:46,54.7531,58.1956,68.04,75,70,11.99,broken clouds
608,Nuuk,GL,2022-07-19 02:46:46,64.1835,-51.7216,48.81,76,100,1.14,overcast clouds
609,Bongor,TD,2022-07-19 02:46:47,10.2806,15.3722,72.97,89,74,4.23,broken clouds
610,Iturama,BR,2022-07-19 02:46:47,-19.7281,-50.1956,71.56,34,100,4.36,overcast clouds
611,Doha,QA,2022-07-19 02:46:47,25.2867,51.5333,94.98,58,64,6.91,broken clouds
612,Bojnurd,IR,2022-07-19 02:46:48,37.4747,57.329,71.55,33,0,2.3,clear sky
613,Vardo,NO,2022-07-19 02:46:48,70.3705,31.1107,58.98,77,91,4.61,overcast clouds
614,Monki,PL,2022-07-19 02:46:49,53.405,22.7979,57.67,94,99,5.26,overcast clouds
615,Correntina,BR,2022-07-19 02:46:49,-13.3433,-44.6367,69.4,58,71,6.17,broken clouds
616,Mount Isa,AU,2022-07-19 02:45:57,-20.7333,139.5,74.97,33,0,6.91,clear sky
617,Vastseliina,EE,2022-07-19 02:46:50,57.7303,27.2932,52.56,95,97,4.59,overcast clouds
618,Altay,CN,2022-07-19 02:46:50,47.8667,88.1167,66.51,46,0,6.15,clear sky
619,Seoul,KR,2022-07-19 02:44:00,37.5683,126.9778,88.99,66,40,5.75,haze
620,Garden City,US,2022-07-19 02:41:58,42.3256,-83.331,80.98,62,75,8.05,broken clouds
621,Natchitoches,US,2022-07-19 02:46:51,31.7668,-93.1335,86.85,65,0,4.61,clear sky
622,Talakan,RU,2022-07-19 02:46:51,50.3167,130.3667,76.12,66,100,3.04,overcast clouds
623,Rudraprayag,IN,2022-07-19 02:46:52,30.2833,78.9833,84.16,76,63,2.35,broken clouds
624,Riohacha,CO,2022-07-19 02:43:04,11.5444,-72.9072,80.4,79,87,15.39,overcast clouds
625,Kenai,US,2022-07-19 02:46:52,60.5544,-151.2583,65.03,72,0,20.71,clear sky
626,Lulea,SE,2022-07-19 02:46:53,65.5842,22.1547,50.07,93,40,3.44,scattered clouds
627,Nanning,CN,2022-07-19 02:45:21,22.8167,108.3167,90.05,66,100,12.68,overcast clouds
628,Jertih,MY,2022-07-19 02:46:53,5.7336,102.4897,82.99,81,100,2.48,overcast clouds
629,Bolshaya Rechka,RU,2022-07-19 02:46:54,51.9503,104.7355,59.27,99,100,5.26,light rain
630,Karasjok,NO,2022-07-19 02:46:54,69.4719,25.5112,51.8,89,86,5.08,overcast clouds
631,Kabale,UG,2022-07-19 02:46:55,-1.2486,29.9899,60.39,66,100,2.13,overcast clouds
632,Abadiania,BR,2022-07-19 02:46:55,-16.2042,-48.7069,65.32,52,0,2.98,clear sky
633,Clyde River,CA,2022-07-19 02:46:55,70.4692,-68.5914,35.83,100,100,5.75,mist
634,Mizan Teferi,ET,2022-07-19 02:46:56,6.9833,35.5833,58.46,90,99,2.98,overcast clouds
635,Dhidhdhoo,MV,2022-07-19 02:46:56,6.8833,73.1,82.2,80,100,16.58,overcast clouds
636,Micheweni,TZ,2022-07-19 02:46:57,-4.9667,39.8333,73.33,83,73,11.1,broken clouds
637,Taft,IR,2022-07-19 02:46:57,31.7471,54.2088,76.95,12,0,4.61,clear sky
638,Flin Flon,CA,2022-07-19 02:44:52,54.7682,-101.865,71.55,51,26,5.21,scattered clouds
639,Abu Kamal,SY,2022-07-19 02:46:54,34.4506,40.9171,87.57,21,3,8.46,clear sky
640,Constitucion,CL,2022-07-19 02:46:58,-35.3333,-72.4167,47.73,90,64,6.6,broken clouds
641,Batouri,CM,2022-07-19 02:46:59,4.4333,14.3667,66.51,99,99,3.0,overcast clouds
642,Moissala,TD,2022-07-19 02:46:59,8.3404,17.7663,69.03,97,98,3.69,overcast clouds
643,Beloha,MG,2022-07-19 02:46:59,-25.1667,45.05,60.04,87,0,9.35,clear sky
644,Sorong,ID,2022-07-19 02:48:00,-0.8833,131.25,81.48,75,80,2.33,broken clouds
645,Racine,US,2022-07-19 02:48:00,42.7495,-88.0751,80.28,77,0,3.44,clear sky
646,Acapulco,MX,2022-07-19 02:43:03,16.8634,-99.8901,80.35,82,84,5.59,broken clouds
647,General Roca,AR,2022-07-19 02:48:01,-39.0333,-67.5833,43.68,27,79,7.56,broken clouds
648,Kribi,CM,2022-07-19 02:48:02,2.95,9.9167,74.84,86,98,7.09,light rain
649,Winder,US,2022-07-19 02:48:02,33.9926,-83.7202,74.41,90,100,4.61,overcast clouds
650,Puerto Del Rosario,ES,2022-07-19 02:48:03,28.5004,-13.8627,71.35,78,0,13.8,clear sky
651,Harper,LR,2022-07-19 02:48:03,4.375,-7.7169,74.1,79,100,10.8,light rain
652,Nha Trang,VN,2022-07-19 02:46:31,12.25,109.1833,89.6,62,99,0.67,overcast clouds
653,Santarem,BR,2022-07-19 02:46:41,-2.4431,-54.7083,77.13,94,75,2.3,broken clouds
654,Kentau,KZ,2022-07-19 02:48:04,43.5206,68.5094,88.5,23,0,12.08,clear sky
655,Muskogee,US,2022-07-19 02:48:04,35.5834,-95.3336,89.82,43,0,6.91,clear sky
656,Maumere,ID,2022-07-19 02:48:04,-8.6199,122.2111,81.21,59,44,5.61,scattered clouds
657,Lloydminster,CA,2022-07-19 02:47:15,53.2835,-110.0016,71.82,78,75,3.44,broken clouds
658,Margate,GB,2022-07-19 02:48:05,51.3813,1.3862,73.69,71,0,9.66,clear sky
659,Maracaibo,VE,2022-07-19 02:48:06,10.6317,-71.6406,81.73,77,64,10.04,broken clouds
660,Omsukchan,RU,2022-07-19 02:48:06,62.5333,155.8,78.94,51,83,10.94,light rain
661,Bontang,ID,2022-07-19 02:48:06,0.1333,117.5,83.91,72,69,7.72,broken clouds
662,Laguna,US,2022-07-19 02:44:11,38.421,-121.4238,98.58,18,0,6.91,clear sky
663,Kdyne,CZ,2022-07-19 02:48:07,49.3908,13.0397,60.76,77,40,1.61,scattered clouds
664,Faya,SA,2022-07-19 02:48:07,18.3851,42.4509,66.72,35,78,3.44,broken clouds
665,Lyuban,BY,2022-07-19 02:48:08,52.7985,28.0048,56.53,98,99,6.38,overcast clouds
666,Camana,PE,2022-07-19 02:48:08,-16.6228,-72.7111,61.57,81,100,8.7,overcast clouds
667,Sarangani,PH,2022-07-19 02:48:08,5.4033,125.4636,82.62,69,99,1.48,overcast clouds
668,Yagodnoye,RU,2022-07-19 02:48:09,62.55,149.6667,83.95,45,97,8.3,overcast clouds
669,Luba,GQ,2022-07-19 02:48:09,3.4568,8.5547,76.89,79,100,7.87,overcast clouds
670,North Bend,US,2022-07-19 02:48:01,43.4065,-124.2243,72.25,85,0,26.46,clear sky
671,Imeni Poliny Osipenko,RU,2022-07-19 02:48:10,52.4201,136.4853,55.96,97,100,13.02,light rain
672,Aleppo,SY,2022-07-19 02:44:07,36.25,37.5,75.94,56,0,10.6,clear sky
673,Tonj,SS,2022-07-19 02:48:10,7.2737,28.6822,68.81,98,94,3.27,overcast clouds
674,Dubbo,AU,2022-07-19 02:48:11,-32.25,148.6167,53.73,54,100,13.8,overcast clouds
675,Nazas,MX,2022-07-19 02:48:11,25.2333,-104.1333,85.42,23,20,8.77,few clouds
